Time,header.seq,header.stamp.secs,header.stamp.nsecs,header.frame_id,Latitude,Longitude,Altitude,Utm_easting,Utm_northing,Zone,letter
1698241508.055852,8,1698241508,55418014,GPS1_Frame,42.33708133333333,-71.08984566666666,16.3,327836.7712823639,4689318.203717898,19,T
1698241509.05651,9,1698241509,56030035,GPS1_Frame,42.337081500000004,-71.08984566666666,16.2,327836.77173719986,4689318.222224962,19,T
1698241510.0554774,10,1698241510,54975032,GPS1_Frame,42.337081500000004,-71.08984516666666,16.0,327836.8129293433,4689318.22121261,19,T
1698241511.053996,11,1698241511,53558349,GPS1_Frame,42.33708183333333,-71.08984483333333,15.8,327836.84130044235,4689318.257551835,19,T
1698241512.0548933,12,1698241512,54550409,GPS1_Frame,42.337082333333335,-71.08984416666667,15.7,327836.89758780407,4689318.311723226,19,T
1698241513.0614898,13,1698241513,60880422,GPS1_Frame,42.337082833333334,-71.08984366666667,15.6,327836.9401444514,4689318.366232066,19,T
1698241514.053118,14,1698241514,52833318,GPS1_Frame,42.33708133333333,-71.08984366666667,15.4,327836.9360509319,4689318.199668491,19,T
1698241515.0544753,15,1698241515,54046154,GPS1_Frame,42.337074666666666,-71.08984383333333,15.1,327836.9041267983,4689317.459723391,19,T
1698241516.054508,16,1698241516,54146289,GPS1_Frame,42.33706183333334,-71.08983816666667,15.1,327837.3359488987,4689316.023206183,19,T
1698241517.0559227,17,1698241517,55712461,GPS1_Frame,42.33704633333333,-71.089828,14.7,327838.1312233567,4689314.28146489,19,T
1698241518.051606,18,1698241518,51303148,GPS1_Frame,42.33703116666667,-71.08981066666666,14.6,327839.5178290735,4689312.56222767,19,T
1698241519.0587215,19,1698241519,58421611,GPS1_Frame,42.337016999999996,-71.08978766666668,13.9,327841.3740091895,4689310.942560112,19,T
1698241520.0538328,20,1698241520,53409337,GPS1_Frame,42.33700483333334,-71.08976016666666,13.5,327843.60637770616,4689309.535867032,19,T
1698241521.0544302,21,1698241521,54114103,GPS1_Frame,42.336999,-71.08973116666667,13.0,327845.9796064878,4689308.829406213,19,T
1698241522.0535843,22,1698241522,53222894,GPS1_Frame,42.336998166666675,-71.08969716666667,13.0,327848.77840178955,4689308.668035305,19,T
1698241523.0557094,23,1698241523,55240631,GPS1_Frame,42.33700050000001,-71.0896595,12.7,327851.8879143697,4689308.850876462,19,T
1698241524.0532217,24,1698241524,52826642,GPS1_Frame,42.33700916666667,-71.08962016666666,12.7,327855.152015898,4689309.733613257,19,T
1698241525.0561242,25,1698241525,55731534,GPS1_Frame,42.33702516666667,-71.08958116666666,13.1,327858.40866529435,4689311.431337154,19,T
1698241526.0539846,26,1698241526,53617000,GPS1_Frame,42.33705066666666,-71.0895495,13.1,327861.08708322444,4689314.198810827,19,T
1698241527.0554318,27,1698241527,54991245,GPS1_Frame,42.33707883333333,-71.08953,13.4,327862.77043315367,4689317.287028598,19,T
1698241528.0538092,28,1698241528,53485870,GPS1_Frame,42.33710666666666,-71.089522,13.7,327863.5054532832,4689320.361513044,19,T
1698241529.0540743,29,1698241529,53680658,GPS1_Frame,42.33713066666666,-71.0895235,13.6,327863.4473632218,4689323.029566781,19,T
1698241530.0535681,30,1698241530,53202867,GPS1_Frame,42.33715383333333,-71.0895335,13.6,327862.68673384836,4689325.622292596,19,T
1698241531.057799,31,1698241531,57458400,GPS1_Frame,42.337175333333334,-71.08955166666667,13.8,327861.2487534267,4689328.046480611,19,T
1698241532.0557206,32,1698241532,55332422,GPS1_Frame,42.3371935,-71.08957716666667,13.8,327859.1975281724,4689330.115373585,19,T
1698241533.0598722,33,1698241533,59540748,GPS1_Frame,42.337205833333336,-71.08961049999999,13.7,327856.4850444216,4689331.552378341,19,T
1698241534.0547693,34,1698241534,54419994,GPS1_Frame,42.337210999999996,-71.0896495,13.8,327853.28616232943,4689332.205052665,19,T
1698241535.0556207,35,1698241535,55188179,GPS1_Frame,42.337206833333326,-71.08969133333333,13.7,327849.8283901275,4689331.827069122,19,T
1698241536.0551338,36,1698241536,54749965,GPS1_Frame,42.33719250000001,-71.08972999999999,13.5,327846.60375700856,4689330.313745158,19,T
1698241537.0577958,37,1698241537,57378768,GPS1_Frame,42.337168999999996,-71.08976266666667,13.4,327843.8484123647,4689327.770386353,19,T
1698241538.054282,38,1698241538,53957223,GPS1_Frame,42.33713983333334,-71.08978433333333,13.7,327841.98382796,4689324.575517256,19,T
1698241539.056453,39,1698241539,56014776,GPS1_Frame,42.33710716666666,-71.08979416666666,13.8,327841.0845708658,4689320.968041796,19,T
1698241540.0537105,40,1698241540,53265571,GPS1_Frame,42.33707533333333,-71.08979266666667,13.8,327841.1212757708,4689317.430155636,19,T
1698241541.0566711,41,1698241541,56398630,GPS1_Frame,42.33704783333333,-71.08977966666666,13.7,327842.1172260442,4689314.350169726,19,T
1698241542.0555732,42,1698241542,55178642,GPS1_Frame,42.337026,-71.08975716666667,13.6,327843.911292498,4689311.88019024,19,T
1698241543.0590808,43,1698241543,57845354,GPS1_Frame,42.33701166666666,-71.0897285,13.3,327846.233863738,4689310.230544126,19,T
1698241544.0558403,44,1698241544,55485248,GPS1_Frame,42.33700533333334,-71.08969433333333,13.0,327849.0313807337,4689309.458102781,19,T
1698241545.0563576,45,1698241545,55447578,GPS1_Frame,42.33700666666667,-71.08965549999999,12.6,327852.23427929974,4689309.527539719,19,T
1698241546.0539787,46,1698241546,53583860,GPS1_Frame,42.337013999999996,-71.0896185,12.9,327855.3025119825,4689310.266943955,19,T
1698241547.0544589,47,1698241547,54156780,GPS1_Frame,42.337029,-71.08958733333334,12.9,327857.9110883484,4689311.869483721,19,T
1698241548.054414,48,1698241548,54085493,GPS1_Frame,42.33705066666666,-71.08956233333333,12.9,327860.02981774084,4689314.224790923,19,T
1698241549.0560803,49,1698241549,55747747,GPS1_Frame,42.33707666666666,-71.08954566666667,13.1,327861.4738339805,4689317.078152464,19,T
1698241550.05565,50,1698241550,55210828,GPS1_Frame,42.33710716666666,-71.08954,13.2,327862.0239010914,4689320.453473423,19,T
1698241551.0549083,51,1698241551,54482221,GPS1_Frame,42.33713666666666,-71.089551,13.1,327861.19816900656,4689323.751492224,19,T
1698241552.0547795,52,1698241552,54465055,GPS1_Frame,42.33716283333333,-71.0895735,13.0,327859.4159242844,4689326.702650894,19,T
1698241553.0567095,53,1698241553,56364059,GPS1_Frame,42.337183,-71.0896055,13.2,327856.83465953596,4689329.00678822,19,T
1698241554.0565217,54,1698241554,56169986,GPS1_Frame,42.3371965,-71.08964716666667,13.1,327853.43882487086,4689330.5902142385,19,T
1698241555.0586429,55,1698241555,58097839,GPS1_Frame,42.33719816666667,-71.089692,12.9,327849.7498175975,4689330.866051501,19,T
1698241556.0547974,56,1698241556,54397583,GPS1_Frame,42.33719116666666,-71.08973466666666,12.8,327846.2156591922,4689330.175136755,19,T
1698241557.0571148,57,1698241557,56701898,GPS1_Frame,42.337175333333334,-71.089771,12.7,327843.17916079424,4689328.490526687,19,T
1698241558.0532928,58,1698241558,52796125,GPS1_Frame,42.33715233333334,-71.08979883333333,12.7,327840.82336891437,4689325.9929045085,19,T
1698241559.05565,59,1698241559,55277824,GPS1_Frame,42.337124333333335,-71.08981716666668,12.7,327839.236580589,4689322.920836685,19,T
1698241560.0624013,60,1698241560,62034606,GPS1_Frame,42.33709233333334,-71.08982516666667,12.7,327838.4901790783,4689319.383677873,19,T
1698241561.0582774,61,1698241561,57786464,GPS1_Frame,42.337060666666666,-71.08981883333333,12.9,327838.9255284178,4689315.854512777,19,T
1698241562.0573752,62,1698241562,56762456,GPS1_Frame,42.337033500000004,-71.08980150000001,12.7,327840.2793865121,4689312.802767127,19,T
1698241563.0576394,63,1698241563,57278633,GPS1_Frame,42.33701383333334,-71.08977916666666,12.3,327842.06563472725,4689310.573716435,19,T
1698241564.0557601,64,1698241564,55451154,GPS1_Frame,42.336999500000005,-71.08974733333334,12.5,327844.64908992744,4689308.917658446,19,T
1698241565.0557833,65,1698241565,55504560,GPS1_Frame,42.33699333333334,-71.08971316666666,12.5,327847.4470621261,4689308.163723545,19,T
1698241566.0545852,66,1698241566,54245233,GPS1_Frame,42.336995333333334,-71.08967683333334,12.4,327850.44581953355,4689308.312249378,19,T
1698241567.058118,67,1698241567,57751655,GPS1_Frame,42.337003,-71.08964383333334,12.2,327853.18542500556,4689309.096764999,19,T
1698241568.0545328,68,1698241568,54171323,GPS1_Frame,42.33701599999999,-71.089612,12.2,327855.84346780996,4689310.47586959,19,T
1698241569.054132,69,1698241569,53767204,GPS1_Frame,42.3370355,-71.08958283333332,12.1,327858.2995542851,4689312.582149161,19,T
1698241570.055255,70,1698241570,54898262,GPS1_Frame,42.33706050000001,-71.08955866666666,12.4,327860.3587252123,4689315.309284765,19,T
1698241571.0599055,71,1698241571,56665420,GPS1_Frame,42.33709016666667,-71.08954516666667,12.6,327861.55186253483,4689318.576212399,19,T
1698241572.0544238,72,1698241572,54082632,GPS1_Frame,42.33712083333333,-71.08954616666666,12.4,327861.5531561057,4689321.983536502,19,T
1698241573.0594425,73,1698241573,59025049,GPS1_Frame,42.3371495,-71.0895615,12.2,327860.3681524321,4689325.1977925785,19,T
1698241574.055213,74,1698241574,54743051,GPS1_Frame,42.33717333333334,-71.08958833333332,12.2,327858.22254350554,4689327.898625225,19,T
1698241575.0594559,75,1698241575,59054136,GPS1_Frame,42.33718833333334,-71.08962366666667,12.0,327855.3525673618,4689329.635792333,19,T
1698241576.0580873,76,1698241576,57712554,GPS1_Frame,42.337194,-71.08966416666667,11.9,327852.03147264593,4689330.347025135,19,T
1698241577.0588057,77,1698241577,58346509,GPS1_Frame,42.33718950000001,-71.08970583333333,11.9,327848.58652051457,4689329.931690628,19,T
1698241578.055203,78,1698241578,54699420,GPS1_Frame,42.337173666666665,-71.08974433333333,12.0,327845.37152361945,4689328.251466192,19,T
1698241579.0598772,79,1698241579,59551239,GPS1_Frame,42.33714883333334,-71.08977533333334,12.0,327842.7498461723,4689325.556676938,19,T
1698241580.0545413,80,1698241580,54192066,GPS1_Frame,42.337117166666665,-71.08979333333333,11.9,327841.18051389616,4689322.076778415,19,T
1698241581.0593245,81,1698241581,58896064,GPS1_Frame,42.33708216666667,-71.08979599999999,11.9,327840.86530929315,4689318.195694098,19,T
1698241582.054542,82,1698241582,54223775,GPS1_Frame,42.33704933333333,-71.08978350000001,11.9,327841.80551285006,4689314.524494425,19,T
1698241583.057904,83,1698241583,57545661,GPS1_Frame,42.3370235,-71.08975933333333,11.8,327843.725970809,4689311.606970961,19,T
1698241584.056378,84,1698241584,55967807,GPS1_Frame,42.33700583333333,-71.08972683333333,11.7,327846.35525270243,4689309.5794225875,19,T
1698241585.0584896,85,1698241585,58187246,GPS1_Frame,42.336998166666675,-71.08968966666666,11.5,327849.396284736,4689308.652851134,19,T
1698241586.0576303,86,1698241586,57284116,GPS1_Frame,42.33700050000001,-71.08964933333333,11.4,327852.7254889965,4689308.830293859,19,T
1698241587.0558114,87,1698241587,55445671,GPS1_Frame,42.3370135,-71.0896085,11.5,327856.1249913485,4689310.191177975,19,T
1698241588.0558047,88,1698241588,55422782,GPS1_Frame,42.33703833333334,-71.089574,11.5,327859.0350138459,4689312.878886644,19,T
1698241589.058109,89,1698241589,57751893,GPS1_Frame,42.337069500000005,-71.08955250000001,11.6,327860.8913194743,4689316.296182251,19,T
1698241590.0559607,90,1698241590,55552959,GPS1_Frame,42.33710133333334,-71.08954433333334,11.8,327861.65098571195,4689319.814498643,19,T
1698241591.056997,91,1698241591,56452274,GPS1_Frame,42.33713183333332,-71.08954383333334,12.0,327861.77540083637,4689323.200279068,19,T
1698241592.0558803,92,1698241592,55540323,GPS1_Frame,42.337160499999996,-71.08954616666666,11.9,327861.6613916499,4689326.388217648,19,T
1698241593.0581996,93,1698241593,57828187,GPS1_Frame,42.33719133333334,-71.08954999999999,11.8,327861.4297185107,4689329.819784701,19,T
1698241594.0549867,94,1698241594,54572582,GPS1_Frame,42.337224666666664,-71.08955816666666,11.6,327860.84786958457,4689333.53773025,19,T
1698241595.058539,95,1698241595,58226346,GPS1_Frame,42.337259499999995,-71.08957099999999,11.6,327859.8856555179,4689337.4316868335,19,T
1698241596.055268,96,1698241596,54923772,GPS1_Frame,42.33729400000001,-71.0895845,11.5,327858.8676104482,4689341.2899791105,19,T
1698241597.0593233,97,1698241597,58966636,GPS1_Frame,42.3373285,-71.08959899999999,11.5,327857.7671826993,4689345.150296056,19,T
1698241598.0565784,98,1698241598,56146383,GPS1_Frame,42.33736366666667,-71.08961433333334,11.4,327856.5999222064,4689349.086328559,19,T
1698241599.0587816,99,1698241599,58468103,GPS1_Frame,42.33739950000001,-71.08962866666667,11.4,327855.516866224,4689353.094365078,19,T
1698241600.0544107,100,1698241600,54096937,GPS1_Frame,42.33743583333333,-71.08964433333334,11.4,327854.32533094217,4689357.160622365,19,T
1698241601.058875,101,1698241601,58411359,GPS1_Frame,42.33747166666667,-71.08966033333333,11.2,327853.1049715628,4689361.17203357,19,T
1698241602.0571423,102,1698241602,56856393,GPS1_Frame,42.337507,-71.089677,11.3,327851.82832685456,4689365.129273553,19,T
1698241603.060669,103,1698241603,60254812,GPS1_Frame,42.337546,-71.08969233333333,11.1,327850.6715344012,4689369.490969851,19,T
1698241604.0553985,104,1698241604,54992914,GPS1_Frame,42.337584500000006,-71.08971,10.9,327849.3211507021,4689373.801869222,19,T
1698241605.0598106,105,1698241605,59500217,GPS1_Frame,42.33762483333333,-71.08972783333334,11.0,327847.9620412231,4689378.316684079,19,T
1698241606.057073,106,1698241606,56756496,GPS1_Frame,42.337666999999996,-71.08974733333334,11.0,327846.470630859,4689383.038451355,19,T
1698241607.0574446,107,1698241607,57090759,GPS1_Frame,42.337709833333335,-71.08976616666668,11.0,327845.035964341,4689387.832897548,19,T
1698241608.0568082,108,1698241608,55497646,GPS1_Frame,42.337751,-71.08978433333333,10.8,327843.6516740145,4689392.440923705,19,T
1698241609.0554307,109,1698241609,55089950,GPS1_Frame,42.33778966666667,-71.0897995,10.8,327842.50771331426,4689396.765270236,19,T
1698241610.0533433,110,1698241610,52871227,GPS1_Frame,42.3378275,-71.08980216666667,11.6,327842.39127141156,4689400.971773281,19,T
1698241611.057213,111,1698241611,56770324,GPS1_Frame,42.337861499999995,-71.08980866666667,12.2,327841.94856615213,4689404.76037508,19,T
1698241612.0536735,112,1698241612,53265810,GPS1_Frame,42.33789483333333,-71.08981416666667,12.3,327841.58642540895,4689408.472924,19,T
1698241613.0561788,113,1698241613,55808067,GPS1_Frame,42.33792833333334,-71.089816,12.5,327841.5268116895,4689412.196556199,19,T
1698241614.0524364,114,1698241614,52103519,GPS1_Frame,42.337959500000004,-71.0898205,13.3,327841.24114209955,4689415.666488653,19,T
1698241615.0570848,115,1698241615,56573629,GPS1_Frame,42.33799166666666,-71.08982333333333,14.0,327841.0955071228,4689419.244089059,19,T
1698241616.051724,116,1698241616,51375389,GPS1_Frame,42.33802366666667,-71.08982999999999,14.6,327840.63361589494,4689422.8109437525,19,T
1698241617.0564492,117,1698241617,56118249,GPS1_Frame,42.3380585,-71.08983566666667,14.9,327840.261840609,4689426.690393937,19,T
1698241618.0546048,118,1698241618,54222583,GPS1_Frame,42.33809483333333,-71.089844,14.5,327839.67447160534,4689430.741806996,19,T
1698241619.055409,119,1698241619,55039882,GPS1_Frame,42.338131000000004,-71.08985200000001,14.2,327839.11410958844,4689434.77403818,19,T
1698241620.0585797,120,1698241620,58217048,GPS1_Frame,42.33816516666668,-71.08985750000001,14.3,327838.75424737914,4689438.579122836,19,T
1698241621.057367,121,1698241621,56910753,GPS1_Frame,42.33819149999999,-71.08985983333334,15.8,327838.63388677477,4689441.50796376,19,T
1698241622.0585258,122,1698241622,57944536,GPS1_Frame,42.33822283333334,-71.089861,15.5,327838.6232851092,4689444.989654534,19,T
1698241623.057153,123,1698241623,56823730,GPS1_Frame,42.338249,-71.08986566666667,16.1,327838.31024359254,4689447.904712798,19,T
1698241624.054749,124,1698241624,53749084,GPS1_Frame,42.3382675,-71.08987033333332,17.1,327837.9762792508,4689449.968446007,19,T
1698241625.057226,125,1698241625,56903123,GPS1_Frame,42.33828100000001,-71.08987716666667,17.8,327837.4501736801,4689451.48135417,19,T
1698241626.054379,126,1698241626,53887605,GPS1_Frame,42.33828100000001,-71.08987699999999,18.5,327837.4639041347,4689451.481016712,19,T
1698241627.053756,127,1698241627,52966117,GPS1_Frame,42.338280166666664,-71.08987816666667,18.7,327837.36551669746,4689451.390843575,19,T
1698241628.0544357,128,1698241628,54012775,GPS1_Frame,42.33827899999999,-71.08987833333335,19.2,327837.34860226774,4689451.261631561,19,T
1698241629.05799,129,1698241629,57577371,GPS1_Frame,42.33827899999999,-71.08987816666667,19.5,327837.36233272275,4689451.261294104,19,T
1698241630.0527616,130,1698241630,52199125,GPS1_Frame,42.33827816666667,-71.08987900000001,19.7,327837.2914061855,4689451.170446057,19,T
1698241631.0552301,131,1698241631,54828882,GPS1_Frame,42.33827733333332,-71.08988,19.9,327837.2067491973,4689451.079935465,19,T
1698241632.0541766,132,1698241632,53838491,GPS1_Frame,42.3382765,-71.08988133333334,20.0,327837.0946312958,4689450.9900997905,19,T
1698241633.0595007,133,1698241633,59137821,GPS1_Frame,42.33827566666667,-71.08988166666667,20.2,327837.06489611766,4689450.898239371,19,T
1698241634.056407,134,1698241634,55904150,GPS1_Frame,42.338274500000004,-71.08988133333334,20.4,327837.0891730457,4689450.768014986,19,T
1698241635.059662,135,1698241635,59338808,GPS1_Frame,42.3382735,-71.08988083333334,20.7,327837.12763528514,4689450.655960208,19,T
1698241636.0549858,136,1698241636,54495811,GPS1_Frame,42.33827233333333,-71.08988,21.1,327837.19310358074,4689450.52472345,19,T
1698241637.0567167,137,1698241637,56243181,GPS1_Frame,42.33827066666666,-71.08987900000001,21.5,327837.2709377706,4689450.337628033,19,T
1698241638.0516539,138,1698241638,51286458,GPS1_Frame,42.338269499999996,-71.08987816666667,21.4,327837.33640607446,4689450.206391276,19,T
1698241639.0579588,139,1698241639,57613849,GPS1_Frame,42.338266999999995,-71.08987516666666,21.8,327837.5767314768,4689449.922711042,19,T
1698241640.0568585,140,1698241640,56471109,GPS1_Frame,42.338266000000004,-71.08987216666667,22.1,327837.82115056796,4689449.805594422,19,T
1698241641.0570316,141,1698241641,56541919,GPS1_Frame,42.338265666666665,-71.08986883333334,22.4,327838.0948499865,4689449.761831164,19,T
1698241642.0540476,142,1698241642,53631544,GPS1_Frame,42.33826583333333,-71.089867,22.5,327838.24633985566,4689449.776626221,19,T
1698241643.0569372,143,1698241643,56608915,GPS1_Frame,42.33826966666667,-71.08987233333333,21.6,327837.81742685963,4689450.213087356,19,T
1698241644.0563424,144,1698241644,55992364,GPS1_Frame,42.338274500000004,-71.08988,21.0,327837.1990166812,4689450.765315324,19,T
1698241645.059265,145,1698241645,58836698,GPS1_Frame,42.33828183333333,-71.08989016666666,21.0,327836.3814726457,4689451.600211244,19,T
1698241646.0568724,146,1698241646,56482553,GPS1_Frame,42.338295,-71.08991066666667,20.2,327834.7285609663,4689453.103777248,19,T
1698241647.055001,147,1698241647,54547548,GPS1_Frame,42.338313,-71.08993166666667,20.2,327833.04764975817,4689455.145061018,19,T
1698241648.0537636,148,1698241648,53296566,GPS1_Frame,42.33834033333333,-71.089952,20.5,327831.4471340497,4689458.221391125,19,T
1698241649.0534933,149,1698241649,53126335,GPS1_Frame,42.33836816666667,-71.08997866666667,21.3,327829.32622796355,4689461.366066836,19,T
1698241650.0536714,150,1698241650,53223848,GPS1_Frame,42.338401833333336,-71.09000250000001,21.5,327827.4546619897,4689465.152753504,19,T
1698241651.0568304,151,1698241651,56540250,GPS1_Frame,42.338441333333336,-71.09001916666666,21.9,327826.1894271953,4689469.572676452,19,T
1698241652.0544019,152,1698241652,54045915,GPS1_Frame,42.33848216666667,-71.09003616666668,22.4,327824.90037250245,4689474.141331214,19,T
1698241653.0568757,153,1698241653,56489706,GPS1_Frame,42.338528333333336,-71.09005833333335,22.2,327823.2002339414,4689479.312674546,19,T
1698241654.0534794,154,1698241654,53099870,GPS1_Frame,42.33857516666667,-71.09008250000001,22.2,327821.3371530995,4689484.562096562,19,T
1698241655.0572708,155,1698241655,56929111,GPS1_Frame,42.338625500000006,-71.09010416666666,21.3,327819.68958403496,4689490.195105218,19,T
1698241656.0539613,156,1698241656,53410768,GPS1_Frame,42.33867516666666,-71.09012083333333,20.3,327818.45210931747,4689495.74396119,19,T
1698241657.0560794,157,1698241657,55770397,GPS1_Frame,42.33871516666667,-71.0901355,20.2,327817.35301619046,4689500.215357505,19,T
1698241658.0565903,158,1698241658,56002140,GPS1_Frame,42.33875216666667,-71.09014283333333,18.9,327816.8498715903,4689504.338776773,19,T
1698241659.0579906,159,1698241659,57374000,GPS1_Frame,42.338773499999995,-71.09015316666667,18.5,327816.05681933375,4689506.728606676,19,T
1698241660.0551877,160,1698241660,54792642,GPS1_Frame,42.33878833333333,-71.09016316666666,18.5,327815.27348647395,4689508.395985996,19,T
1698241661.0580306,161,1698241661,57552099,GPS1_Frame,42.338805,-71.09017566666667,18.7,327814.28920307267,4689510.272005766,19,T
1698241662.0552697,162,1698241662,54908990,GPS1_Frame,42.33882583333334,-71.0901925,19.1,327812.9593046868,4689512.619477637,19,T
1698241663.0609648,163,1698241663,60604572,GPS1_Frame,42.33885283333334,-71.0902115,19.3,327811.4677454041,4689515.65609901,19,T
1698241664.0542457,164,1698241664,53750276,GPS1_Frame,42.3388905,-71.09023133333334,19.0,327809.93665177614,4689519.878860757,19,T
1698241665.0565007,165,1698241665,56066513,GPS1_Frame,42.3389335,-71.09024966666667,18.5,327808.5436910704,4689524.69081148,19,T
1698241666.0552938,166,1698241666,54825067,GPS1_Frame,42.33897816666666,-71.09027016666667,18.1,327806.9767880491,4689529.692221042,19,T
1698241667.0531,167,1698241667,52703857,GPS1_Frame,42.33902500000001,-71.09029000000001,17.9,327805.4707230411,4689534.932872869,19,T
1698241668.0521662,168,1698241668,51747083,GPS1_Frame,42.33906733333333,-71.09031233333333,17.0,327803.74642257433,4689539.678897158,19,T
1698241669.0567193,169,1698241669,56396245,GPS1_Frame,42.33911333333334,-71.09033516666666,16.7,327801.99094298313,4689544.833090113,19,T
1698241670.0558019,170,1698241670,55404663,GPS1_Frame,42.33915966666667,-71.0903595,16.7,327800.1128038213,4689550.027335585,19,T
1698241671.0589702,171,1698241671,58412790,GPS1_Frame,42.33920383333334,-71.09038033333333,16.5,327798.51708838076,4689554.973901435,19,T
1698241672.0572064,172,1698241672,56768417,GPS1_Frame,42.33924483333333,-71.09039866666667,15.9,327797.1186845491,4689559.563770267,19,T
1698241673.05903,173,1698241673,58437585,GPS1_Frame,42.339282999999995,-71.090415,15.6,327795.87731093366,4689563.834968721,19,T
1698241674.0570607,174,1698241674,56567668,GPS1_Frame,42.33932,-71.09043,15.5,327794.74259595794,4689567.9739175895,19,T
1698241675.059819,175,1698241675,59381246,GPS1_Frame,42.33935383333334,-71.09044133333333,15.1,327793.9013025882,4689571.753806265,19,T
1698241676.0571864,176,1698241676,56802272,GPS1_Frame,42.339380833333344,-71.09045233333333,14.7,327793.0688161832,4689574.774230076,19,T
1698241677.0559225,177,1698241677,55433988,GPS1_Frame,42.339398333333335,-71.09046633333334,13.4,327791.96325233625,4689576.745826935,19,T
1698241678.054009,178,1698241678,53513765,GPS1_Frame,42.33940716666666,-71.09047416666667,13.8,327791.34204711707,4689577.742566748,19,T
1698241679.0592978,179,1698241679,57791233,GPS1_Frame,42.339415499999994,-71.09047883333332,13.0,327790.98035101197,4689578.677371848,19,T
1698241680.064876,180,1698241680,64460039,GPS1_Frame,42.3394225,-71.09048833333333,12.9,327790.21683911583,4689579.473909549,19,T
1698241681.0575287,181,1698241681,57131052,GPS1_Frame,42.33943483333334,-71.09048933333334,13.0,327790.16812764923,4689580.845458156,19,T
1698241682.0568109,182,1698241682,56204080,GPS1_Frame,42.33944533333333,-71.09048516666667,13.3,327790.54004744353,4689582.002964712,19,T
1698241683.057856,183,1698241683,57302474,GPS1_Frame,42.339446333333335,-71.09048583333333,13.8,327790.48785662116,4689582.115357366,19,T
1698241684.055827,184,1698241684,55309534,GPS1_Frame,42.33944816666667,-71.090485,14.1,327790.56151257467,4689582.317247365,19,T
1698241685.0560606,185,1698241685,55742025,GPS1_Frame,42.339451833333335,-71.09048383333334,14.6,327790.66763387434,4689582.722040034,19,T
1698241686.053196,186,1698241686,52741050,GPS1_Frame,42.33945333333333,-71.09048266666667,14.9,327790.7678402194,4689582.886240779,19,T
1698241687.0555882,187,1698241687,55197715,GPS1_Frame,42.33946283333333,-71.09047766666666,15.1,327791.20568084484,4689583.931017159,19,T
1698241688.0537176,188,1698241688,53257942,GPS1_Frame,42.33947033333334,-71.0904735,15.4,327791.5694104509,4689584.7553964835,19,T
1698241689.0536685,189,1698241689,53232669,GPS1_Frame,42.33947683333334,-71.09047016666666,15.6,327791.8617590631,4689585.470421171,19,T
1698241690.0545032,190,1698241690,54162263,GPS1_Frame,42.33948066666667,-71.09046866666667,15.8,327791.99579562945,4689585.89304582,19,T
1698241691.0568705,191,1698241691,56529998,GPS1_Frame,42.33948266666666,-71.09046766666667,16.1,327792.0836366914,4689586.11310535,19,T
1698241692.0541651,192,1698241692,53786993,GPS1_Frame,42.33948466666667,-71.0904665,16.4,327792.1852079369,4689586.33282733,19,T
1698241693.0597878,193,1698241693,59141159,GPS1_Frame,42.33948683333333,-71.09046533333334,16.6,327792.2872341728,4689586.571056379,19,T
1698241694.0561776,194,1698241694,55851459,GPS1_Frame,42.33948866666666,-71.09046416666666,16.9,327792.38835041656,4689586.772271288,19,T
1698241695.0565429,195,1698241695,55711507,GPS1_Frame,42.33948999999999,-71.09046316666667,17.0,327792.47437149065,4689586.918302538,19,T
1698241696.0517175,196,1698241696,51182746,GPS1_Frame,42.33949116666666,-71.09046233333333,17.4,327792.5462073785,4689587.046164271,19,T
1698241697.0574381,197,1698241697,56939601,GPS1_Frame,42.339492666666665,-71.09046166666667,17.7,327792.60522305744,4689587.211377702,19,T
1698241698.0554607,198,1698241698,55109739,GPS1_Frame,42.33949483333334,-71.09046033333334,18.2,327792.7209794568,4689587.449269206,19,T
1698241699.0579758,199,1698241699,57608604,GPS1_Frame,42.33949733333334,-71.090459,18.6,327792.8376458283,4689587.724174853,19,T
1698241700.0535305,200,1698241700,53194761,GPS1_Frame,42.3395,-71.09045816666666,19.0,327792.9135766198,4689588.01860023,19,T
1698241701.055394,201,1698241701,55033206,GPS1_Frame,42.339502499999995,-71.09045733333333,19.4,327792.98905241326,4689588.294518538,19,T
1698241702.0517337,202,1698241702,51416635,GPS1_Frame,42.33950483333333,-71.09045616666667,20.0,327793.0915335881,4689588.551254669,19,T
1698241703.0560079,203,1698241703,55697202,GPS1_Frame,42.339507000000005,-71.09045516666667,20.5,327793.1798295762,4689588.789821286,19,T
1698241704.0535574,204,1698241704,52523374,GPS1_Frame,42.33950983333334,-71.09045416666666,21.0,327793.26994552236,4689589.102416187,19,T
1698241705.0575233,205,1698241705,57044744,GPS1_Frame,42.33951216666666,-71.0904535,21.5,327793.3312361189,4689589.360164977,19,T
1698241706.0544014,206,1698241706,53975343,GPS1_Frame,42.33951383333333,-71.09045333333333,21.8,327793.34951620037,4689589.544898138,19,T
1698241707.0521164,207,1698241707,51675081,GPS1_Frame,42.33951533333334,-71.09045283333333,22.1,327793.3948016596,4689589.710449127,19,T
1698241708.0546813,208,1698241708,54251194,GPS1_Frame,42.339516999999994,-71.09045216666667,22.5,327793.4542722923,4689589.894169631,19,T
1698241709.056411,209,1698241709,56144952,GPS1_Frame,42.339518500000004,-71.0904515,22.8,327793.5132879329,4689590.05938307,19,T
1698241710.0527418,210,1698241710,52223443,GPS1_Frame,42.33952033333333,-71.09045133333333,23.0,327793.53202299844,4689590.262623303,19,T
1698241711.0553741,211,1698241711,55032730,GPS1_Frame,42.339522,-71.09045083333334,23.3,327793.5777634393,4689590.446681362,19,T
1698241712.052478,212,1698241712,52076101,GPS1_Frame,42.33952416666666,-71.09045016666667,23.4,327793.63859902753,4689590.685923084,19,T
1698241713.0550714,213,1698241713,54606676,GPS1_Frame,42.33952583333333,-71.09045016666667,23.5,327793.64314891835,4689590.870993798,19,T
1698241714.0534394,214,1698241714,53044080,GPS1_Frame,42.33952666666667,-71.09045033333334,23.6,327793.6316936823,4689590.963866706,19,T
1698241715.0570881,215,1698241715,56572675,GPS1_Frame,42.339527333333336,-71.0904505,23.5,327793.6197834575,4689591.038232543,19,T
1698241716.0543318,216,1698241716,53997516,GPS1_Frame,42.33952883333333,-71.09045083333334,23.4,327793.5964179979,4689591.205471287,19,T
1698241717.056031,217,1698241717,55680513,GPS1_Frame,42.3395305,-71.090452,23.1,327793.5048566235,4689591.392904859,19,T
1698241718.050366,218,1698241718,49922704,GPS1_Frame,42.3395325,-71.0904535,22.8,327793.38674487325,4689591.61802768,19,T
1698241719.0561566,219,1698241719,55783987,GPS1_Frame,42.339532999999996,-71.09045533333332,22.4,327793.23707785667,4689591.677261963,19,T
1698241720.052494,220,1698241720,52063941,GPS1_Frame,42.339534666666665,-71.09045666666665,22.1,327793.13178632094,4689591.865033095,19,T
1698241721.0541172,221,1698241721,53726673,GPS1_Frame,42.339537,-71.0904575,21.9,327793.0695052885,4689592.125819854,19,T
1698241722.0532527,222,1698241722,52700042,GPS1_Frame,42.33953866666668,-71.09045866666666,21.5,327792.9779439438,4689592.313253437,19,T
1698241723.0587451,223,1698241723,58301925,GPS1_Frame,42.33954066666667,-71.09045966666666,21.1,327792.9010227613,4689592.537363609,19,T
1698241724.0552683,224,1698241724,54894447,GPS1_Frame,42.33954283333334,-71.09046033333334,20.8,327792.85201693606,4689592.779305749,19,T
1698241725.0531194,225,1698241725,52752017,GPS1_Frame,42.339546000000006,-71.0904605,20.5,327792.8469315967,4689593.131277657,19,T
1698241726.0538313,226,1698241726,53469657,GPS1_Frame,42.339548666666666,-71.09046116666667,20.2,327792.79929075204,4689593.428741012,19,T
1698241727.0564945,227,1698241727,56141138,GPS1_Frame,42.339550666666675,-71.09046183333334,20.0,327792.7498299449,4689593.652176081,19,T
1698241728.052969,228,1698241728,52435636,GPS1_Frame,42.33955233333333,-71.09046216666667,19.9,327792.72691951157,4689593.837921899,19,T
1698241729.0534413,229,1698241729,53048849,GPS1_Frame,42.33955483333334,-71.09046199999999,19.9,327792.74747456843,4689594.115190419,19,T
1698241730.0537913,230,1698241730,53452014,GPS1_Frame,42.33955833333333,-71.0904615,20.0,327792.79821992107,4689594.5028262595,19,T
1698241731.0563672,231,1698241731,55902957,GPS1_Frame,42.33956033333334,-71.0904615,20.0,327792.8036798234,4689594.724911118,19,T
1698241732.0543537,232,1698241732,53996086,GPS1_Frame,42.339563,-71.09046116666667,20.0,327792.8384200428,4689595.020349156,19,T
1698241733.0552175,233,1698241733,54882526,GPS1_Frame,42.3395655,-71.090461,20.0,327792.8589750934,4689595.297617673,19,T
1698241734.0535834,234,1698241734,53313732,GPS1_Frame,42.33956716666667,-71.0904605,20.0,327792.90471553185,4689595.481675728,19,T
1698241735.0560057,235,1698241735,55676221,GPS1_Frame,42.33956733333333,-71.09046016666666,20.0,327792.9326308689,4689595.499507694,19,T
1698241736.0522676,236,1698241736,51488399,GPS1_Frame,42.33957516666666,-71.0904635,20.1,327792.6794120511,4689596.376091115,19,T
1698241737.0576334,237,1698241737,57031393,GPS1_Frame,42.33959316666666,-71.09047149999999,20.1,327792.06950320734,4689598.391057432,19,T
1698241738.0558705,238,1698241738,55177450,GPS1_Frame,42.339614,-71.09047883333332,20.3,327791.5222503455,4689600.719293812,19,T
1698241739.0571306,239,1698241739,55815935,GPS1_Frame,42.33963266666667,-71.09048433333334,20.2,327791.1201146807,4689602.803225196,19,T
1698241740.0615003,240,1698241740,61117410,GPS1_Frame,42.339647,-71.09048750000001,19.9,327790.8983715086,4689604.401246944,19,T
1698241741.0574074,241,1698241741,56940317,GPS1_Frame,42.33965966666666,-71.09048783333333,19.6,327790.9054910799,4689605.808459512,19,T
1698241742.0563252,242,1698241742,55974960,GPS1_Frame,42.339672666666665,-71.09048616666668,19.5,327791.07828246546,4689607.248635537,19,T
1698241743.0580733,243,1698241743,57514190,GPS1_Frame,42.339686833333325,-71.09047933333333,19.2,327791.67989334697,4689608.80789682,19,T
1698241744.0554507,244,1698241744,55157423,GPS1_Frame,42.33970916666667,-71.09045850000001,18.9,327793.45713070245,4689611.245650154,19,T
1698241745.058608,245,1698241745,58293342,GPS1_Frame,42.33972383333333,-71.09041583333332,18.2,327797.0120856077,4689612.787859867,19,T
1698241746.0545213,246,1698241746,54170608,GPS1_Frame,42.33974733333333,-71.09035583333333,18.1,327802.0190864154,4689615.275842246,19,T
1698241747.0525317,247,1698241747,52155494,GPS1_Frame,42.3397805,-71.09028233333333,18.4,327808.164611334,4689618.80989872,19,T
1698241748.0556436,248,1698241748,55291891,GPS1_Frame,42.339814499999996,-71.090199,18.5,327815.1224816226,4689622.416582591,19,T
1698241749.058104,249,1698241749,57743549,GPS1_Frame,42.33984716666667,-71.09010933333334,18.0,327822.59844942583,4689625.862391721,19,T
1698241750.0544045,250,1698241750,53972721,GPS1_Frame,42.33987950000001,-71.09002050000001,17.5,327830.0048492667,4689629.272881893,19,T
1698241751.055744,251,1698241751,55468559,GPS1_Frame,42.339910666666675,-71.08993433333333,16.9,327837.188375894,4689632.559229683,19,T
1698241752.0544484,252,1698241752,54050445,GPS1_Frame,42.33994366666668,-71.08984716666667,16.6,327844.45927953534,4689636.047137719,19,T
1698241753.0583742,253,1698241753,58008670,GPS1_Frame,42.33998033333334,-71.08975616666666,16.6,327852.0559741112,4689639.934447568,19,T
1698241754.0531898,254,1698241754,52649497,GPS1_Frame,42.34002016666667,-71.0896595,16.7,327860.1281241225,4689644.161927366,19,T
1698241755.0565705,255,1698241755,56223630,GPS1_Frame,42.34005416666667,-71.08955816666666,16.0,327868.5687879446,4689647.732221262,19,T
1698241756.0532727,256,1698241756,52902221,GPS1_Frame,42.340092166666665,-71.08945666666666,15.6,327877.0340874897,4689651.746357426,19,T
1698241757.0568347,257,1698241757,56377172,GPS1_Frame,42.340132,-71.08935716666666,15.4,327885.33961870073,4689655.968129843,19,T
1698241758.0532193,258,1698241758,52631378,GPS1_Frame,42.34017383333333,-71.08926216666667,15.4,327893.27988532645,4689660.421105403,19,T
1698241759.0578122,259,1698241759,57465791,GPS1_Frame,42.34020633333333,-71.08917849999999,14.9,327900.2610353129,4689663.86063316,19,T
1698241760.0539362,260,1698241760,53622961,GPS1_Frame,42.34023383333333,-71.08911199999999,14.7,327905.8143444612,4689666.77970096,19,T
1698241761.0571232,261,1698241761,56652784,GPS1_Frame,42.34025566666666,-71.08905716666666,14.8,327910.391087872,4689669.093145401,19,T
1698241762.0548065,262,1698241762,54437398,GPS1_Frame,42.340272000000006,-71.08901533333332,14.7,327913.8818822915,4689670.822170266,19,T
1698241763.0572784,263,1698241763,56780576,GPS1_Frame,42.340282333333334,-71.08898966666668,14.8,327916.0244951091,4689671.917661751,19,T
1698241764.0536594,264,1698241764,53326845,GPS1_Frame,42.34028566666666,-71.08898,14.8,327916.8299295462,4689672.268238909,19,T
1698241765.053943,265,1698241765,53613901,GPS1_Frame,42.3402885,-71.08897933333333,14.8,327916.89257908874,4689672.581509874,19,T
1698241766.054248,266,1698241766,53849935,GPS1_Frame,42.34029016666667,-71.08897966666667,14.9,327916.86966581206,4689672.7672552215,19,T
1698241767.056524,267,1698241767,56161880,GPS1_Frame,42.34029466666666,-71.08898016666667,15.4,327916.8407520099,4689673.267958104,19,T
1698241768.0544736,268,1698241768,54159402,GPS1_Frame,42.34029766666666,-71.08898066666667,15.6,327916.8077461332,4689673.602097341,19,T
1698241769.052743,269,1698241769,52368402,GPS1_Frame,42.34029866666666,-71.08898033333334,15.7,327916.8379342118,4689673.712465145,19,T
1698241770.0519307,270,1698241770,51542520,GPS1_Frame,42.34029866666666,-71.08898033333334,15.7,327916.8379342118,4689673.712465145,19,T
1698241771.0565667,271,1698241771,56253433,GPS1_Frame,42.34030016666667,-71.08898016666667,15.7,327916.85575630446,4689673.878691477,19,T
1698241772.0552187,272,1698241772,54865837,GPS1_Frame,42.34030083333334,-71.08898033333334,15.5,327916.84384499525,4689673.953057079,19,T
1698241773.0558033,273,1698241773,55485248,GPS1_Frame,42.3403015,-71.08898016666667,15.4,327916.85939370946,4689674.026748053,19,T
1698241774.0539582,274,1698241774,53611993,GPS1_Frame,42.34030166666666,-71.08898016666667,15.2,327916.85984838504,4689674.045255123,19,T
1698241775.0545857,275,1698241775,54177999,GPS1_Frame,42.340302,-71.08898049999999,14.9,327916.8332977135,4689674.082943895,19,T
1698241776.0471764,276,1698241776,46322584,GPS1_Frame,42.3403035,-71.08898083333334,14.5,327916.80992977275,4689674.250182172,19,T
1698241777.052697,277,1698241777,52288293,GPS1_Frame,42.34030500000001,-71.08898133333334,14.3,327916.7728318205,4689674.4177577635,19,T
1698241778.0511758,278,1698241778,50727128,GPS1_Frame,42.34030683333334,-71.08898183333334,14.1,327916.7366432224,4689674.622347498,19,T
1698241779.0544887,279,1698241779,53987026,GPS1_Frame,42.34030933333334,-71.088982,13.9,327916.72973335336,4689674.9002908915,19,T
1698241780.050532,280,1698241780,50143718,GPS1_Frame,42.3403165,-71.08897816666666,14.3,327917.0650746254,4689675.688336752,19,T
1698241781.0548563,281,1698241781,54570436,GPS1_Frame,42.34032383333333,-71.08896433333332,14.3,327918.2246709195,4689676.47465094,19,T
1698241782.055271,282,1698241782,54858207,GPS1_Frame,42.34033633333333,-71.08893566666667,14.2,327920.6203320768,4689677.804664092,19,T
1698241783.056629,283,1698241783,56250095,GPS1_Frame,42.34035433333334,-71.08889383333333,14.2,327924.11566610576,4689679.718764591,19,T
1698241784.0564444,284,1698241784,56000232,GPS1_Frame,42.34037283333334,-71.08884116666667,14.0,327928.5048118729,4689681.66646396,19,T
1698241785.0572462,285,1698241785,56790590,GPS1_Frame,42.34038916666667,-71.08878116666666,13.2,327933.4921645171,4689683.358733626,19,T
1698241786.054809,286,1698241786,54482460,GPS1_Frame,42.340410000000006,-71.08871366666668,12.5,327939.1096387973,4689685.535520478,19,T
1698241787.0536544,287,1698241787,53147077,GPS1_Frame,42.34043366666666,-71.08863933333333,11.8,327945.2977669671,4689688.013104297,19,T
1698241788.0532274,288,1698241788,52810192,GPS1_Frame,42.34045883333333,-71.08855816666666,11.2,327952.0529108825,4689690.643429984,19,T
1698241789.0551481,289,1698241789,54838418,GPS1_Frame,42.34049233333334,-71.08847183333334,11.1,327959.2564069023,4689694.18866142,19,T
1698241790.0545435,290,1698241790,54154157,GPS1_Frame,42.340534,-71.08838083333333,11.4,327966.86660713964,4689698.631304476,19,T
1698241791.0558968,291,1698241791,55525064,GPS1_Frame,42.34056833333334,-71.08828533333333,10.8,327974.8275070348,4689702.250539906,19,T
1698241792.050965,292,1698241792,50482034,GPS1_Frame,42.340608833333334,-71.08818649999999,10.9,327983.07981398306,4689706.547802081,19,T
1698241793.0576463,293,1698241793,57290077,GPS1_Frame,42.340650000000004,-71.08808733333333,11.2,327991.361388313,4689710.918427654,19,T
1698241794.053765,294,1698241794,53351402,GPS1_Frame,42.34068833333334,-71.087992,11.2,327999.31943782436,4689714.982197074,19,T
1698241795.0577729,295,1698241795,57340145,GPS1_Frame,42.34071666666667,-71.08790033333334,10.0,328006.9481529703,4689717.942968051,19,T
1698241796.0548568,296,1698241796,54476976,GPS1_Frame,42.34074916666667,-71.08781416666667,9.8,328014.13513479114,4689721.377549111,19,T
1698241797.0582564,297,1698241797,57890892,GPS1_Frame,42.34078383333334,-71.0877315,10.1,328021.03968858253,4689725.059808656,19,T
1698241798.052607,298,1698241798,52223443,GPS1_Frame,42.34081,-71.08765066666666,9.3,328027.7700321195,4689727.801922245,19,T
1698241799.0574865,299,1698241799,57108640,GPS1_Frame,42.34084683333334,-71.08757483333333,10.3,328034.1175532504,4689731.738607377,19,T
1698241800.061718,300,1698241800,61424970,GPS1_Frame,42.34087666666666,-71.08750149999999,10.5,328040.24003580847,4689734.903057188,19,T
1698241801.0569923,301,1698241801,56582927,GPS1_Frame,42.340908999999996,-71.08742833333334,11.2,328046.3555979248,4689738.345455344,19,T
1698241802.0569324,302,1698241802,56602001,GPS1_Frame,42.340925,-71.08735133333333,9.8,328052.74241694924,4689739.966413436,19,T
1698241803.0573626,303,1698241803,56973457,GPS1_Frame,42.34095766666666,-71.08727266666666,10.5,328059.3119623738,4689743.4347140575,19,T
1698241804.0566976,304,1698241804,56255817,GPS1_Frame,42.34099866666667,-71.087194,11.3,328065.9042157325,4689747.828374257,19,T
1698241805.056908,305,1698241805,56436061,GPS1_Frame,42.341038,-71.08711566666666,11.5,328072.4644582614,4689752.037643749,19,T
1698241806.0548284,306,1698241806,54415702,GPS1_Frame,42.34107966666667,-71.0870415,12.3,328078.6878063956,4689756.514443227,19,T
1698241807.0569112,307,1698241807,56429147,GPS1_Frame,42.3411205,-71.08697316666667,12.4,328084.4283311799,4689760.910507332,19,T
1698241808.056558,308,1698241808,56176662,GPS1_Frame,42.34115666666666,-71.08690583333333,12.1,328090.07375132496,4689764.790399819,19,T
1698241809.0575798,309,1698241809,57159900,GPS1_Frame,42.34119283333333,-71.08684283333334,11.8,328095.3621899361,4689768.679057902,19,T
1698241810.0559916,310,1698241810,55614471,GPS1_Frame,42.341230333333336,-71.08678216666667,12.2,328100.46203896706,4689772.720493843,19,T
1698241811.058675,311,1698241811,58255672,GPS1_Frame,42.34126483333333,-71.08672499999999,12.8,328105.2653808501,4689776.435882009,19,T
1698241812.0563664,312,1698241812,55945158,GPS1_Frame,42.341294500000004,-71.086676,12.8,328109.3827864992,4689779.631078429,19,T
1698241813.0591512,313,1698241813,58524370,GPS1_Frame,42.34133116666667,-71.08663766666668,14.2,328112.6405573271,4689783.625138109,19,T
1698241814.0571704,314,1698241814,56757688,GPS1_Frame,42.341356,-71.086608,14.8,328115.1521301792,4689786.322717522,19,T
1698241815.0590067,315,1698241815,58585882,GPS1_Frame,42.34136716666667,-71.08658966666667,14.8,328116.69283498626,4689787.5256289905,19,T
1698241816.0535994,316,1698241816,53192138,GPS1_Frame,42.341378166666665,-71.08657366666667,14.9,328118.04086824856,4689788.71475068,19,T
1698241817.057552,317,1698241817,57114839,GPS1_Frame,42.341396,-71.08654966666667,15.4,328120.0665505354,4689790.646490259,19,T
1698241818.0564954,318,1698241818,56105136,GPS1_Frame,42.3414195,-71.08651916666666,16.5,328122.6431337246,4689793.194331037,19,T
1698241819.0597713,319,1698241819,59497356,GPS1_Frame,42.34144366666666,-71.08648533333333,17.9,328125.49612685235,4689795.809462754,19,T
1698241820.0559127,320,1698241820,55504322,GPS1_Frame,42.34145566666666,-71.08644516666666,18.6,328128.8376968341,4689797.060776852,19,T
1698241821.0590212,321,1698241821,58508396,GPS1_Frame,42.34145983333333,-71.08640316666667,19.8,328132.3089490236,4689797.438554223,19,T
1698241822.0581396,322,1698241822,57744026,GPS1_Frame,42.341441,-71.08635616666668,19.6,328136.12942570716,4689795.252250577,19,T
1698241823.0598383,323,1698241823,59391736,GPS1_Frame,42.34141150000001,-71.086307,19.5,328140.099329073,4689791.877116991,19,T
1698241824.0577345,324,1698241824,57431697,GPS1_Frame,42.34137616666667,-71.08625550000001,19.6,328144.2455599009,4689787.84952201,19,T
1698241825.0588694,325,1698241825,58303833,GPS1_Frame,42.341338166666674,-71.08620033333334,19.5,328148.6865855041,4689783.518405438,19,T
1698241826.0575852,326,1698241826,57109594,GPS1_Frame,42.34129516666667,-71.08614899999999,20.2,328152.79820941004,4689778.639827447,19,T
1698241827.054125,327,1698241827,53797006,GPS1_Frame,42.34125600000001,-71.08609516666667,20.6,328157.12622947636,4689774.181861974,19,T
1698241828.0556371,328,1698241828,55160284,GPS1_Frame,42.341216,-71.08604083333333,20.7,328161.49317434104,4689769.630353485,19,T
1698241829.058063,329,1698241829,57588815,GPS1_Frame,42.34115499999999,-71.08598616666667,18.7,328165.830376699,4689762.746283308,19,T
1698241830.057572,330,1698241830,56993484,GPS1_Frame,42.34111533333333,-71.08593566666667,18.4,328169.88245651976,4689758.239541765,19,T
1698241831.0587652,331,1698241831,58345317,GPS1_Frame,42.34108066666666,-71.08588983333334,18.2,328173.56372638454,4689754.2974457005,19,T
1698241832.0561378,332,1698241832,55765151,GPS1_Frame,42.341052833333336,-71.085852,17.5,328176.60458182346,4689751.130308434,19,T
1698241833.0615458,333,1698241833,61246395,GPS1_Frame,42.3410245,-71.08582383333334,16.6,328178.84774667385,4689747.927186019,19,T
1698241834.053825,334,1698241834,53240537,GPS1_Frame,42.34100466666667,-71.085802,15.7,328180.5923325035,4689745.6807234185,19,T
1698241835.0575042,335,1698241835,57102918,GPS1_Frame,42.34099133333334,-71.08578733333334,14.9,328181.7642409443,4689744.170519369,19,T
1698241836.0578892,336,1698241836,57504653,GPS1_Frame,42.34097883333334,-71.08577916666667,13.8,328182.40295521787,4689742.765985977,19,T
1698241837.0605128,337,1698241837,60143709,GPS1_Frame,42.340971999999994,-71.08577033333333,13.2,328183.1120246131,4689741.989345854,19,T
1698241838.0574956,338,1698241838,57049274,GPS1_Frame,42.340957333333336,-71.08575766666667,13.1,328184.1155440279,4689740.335127237,19,T
1698241839.0594769,339,1698241839,59086322,GPS1_Frame,42.3409465,-71.08573833333334,13.0,328185.67870014056,4689739.093099727,19,T
1698241840.056603,340,1698241840,56304931,GPS1_Frame,42.34093866666667,-71.08570833333333,13.2,328188.12873998017,4689738.162645471,19,T
1698241841.0594606,341,1698241841,59070825,GPS1_Frame,42.340934333333344,-71.08567016666666,13.1,328191.2610773189,4689737.604338307,19,T
1698241842.0587363,342,1698241842,57474136,GPS1_Frame,42.34094166666667,-71.08562566666666,13.2,328194.94692674966,4689738.3287300635,19,T
1698241843.061001,343,1698241843,60524463,GPS1_Frame,42.34096366666666,-71.08557516666666,12.7,328199.16699724086,4689740.669622347,19,T
1698241844.056224,344,1698241844,55899143,GPS1_Frame,42.340996833333335,-71.08552549999999,12.6,328203.3488287844,4689744.25217457,19,T
1698241845.0539954,345,1698241845,53673982,GPS1_Frame,42.34103816666667,-71.08547383333332,12.3,328207.71765625733,4689748.737534634,19,T
1698241846.056168,346,1698241846,55804729,GPS1_Frame,42.341083499999996,-71.085419,12.5,328212.35823892837,4689753.660668909,19,T
1698241847.056717,347,1698241847,56342840,GPS1_Frame,42.34113083333333,-71.08535733333333,12.0,328217.5671848896,4689758.792085006,19,T
1698241848.0549793,348,1698241848,54690599,GPS1_Frame,42.341179499999996,-71.08529116666666,12.1,328223.1504594359,4689764.062469926,19,T
1698241849.0576255,349,1698241849,57295083,GPS1_Frame,42.34123216666667,-71.08522816666667,12.1,328228.48375212634,4689769.783426242,19,T
1698241850.0565598,350,1698241850,56066513,GPS1_Frame,42.34128033333333,-71.08516549999999,12.3,328233.7773226459,4689775.005368907,19,T
1698241851.057868,351,1698241851,57482957,GPS1_Frame,42.341327166666666,-71.08510816666667,11.9,328238.6279015307,4689780.09003287,19,T
1698241852.0539198,352,1698241852,53598642,GPS1_Frame,42.341378500000005,-71.085056,12.3,328243.0651038838,4689785.684828036,19,T
1698241853.0558476,353,1698241853,55491685,GPS1_Frame,42.34142883333334,-71.08501116666666,11.9,328246.8954668762,4689791.183397062,19,T
1698241854.055161,354,1698241854,54875135,GPS1_Frame,42.34146633333333,-71.08496983333333,11.5,328250.4025557661,4689795.263993612,19,T
1698241855.0572584,355,1698241855,56937694,GPS1_Frame,42.341498,-71.08492883333334,11.5,328253.86629805574,4689798.697517669,19,T
1698241856.051762,356,1698241856,51306962,GPS1_Frame,42.341530666666664,-71.0848865,11.7,328257.44259768876,4689802.239392546,19,T
1698241857.056844,357,1698241857,56464433,GPS1_Frame,42.34156366666666,-71.0848405,12.7,328261.3218554579,4689805.810877068,19,T
1698241858.0545008,358,1698241858,54000139,GPS1_Frame,42.341604999999994,-71.08479733333334,13.4,328264.99039274413,4689810.313440059,19,T
1698241859.0574496,359,1698241859,56966304,GPS1_Frame,42.34163983333333,-71.08475033333335,13.9,328268.95701203425,4689814.086486548,19,T
1698241860.0626078,360,1698241860,62220811,GPS1_Frame,42.34168,-71.08470349999999,14.6,328272.9244175768,4689818.4520980725,19,T
1698241861.0551682,361,1698241861,54899930,GPS1_Frame,42.34172033333333,-71.08465083333334,15.0,328277.37281148933,4689822.824437216,19,T
1698241862.0555131,362,1698241862,55222988,GPS1_Frame,42.34175933333333,-71.084603,15.2,328281.4194090251,4689827.058484116,19,T
1698241863.0555775,363,1698241863,55158615,GPS1_Frame,42.34180249999999,-71.08455416666668,14.9,328285.55972295377,4689831.753190409,19,T
1698241864.0535176,364,1698241864,53160905,GPS1_Frame,42.341842,-71.08451,14.9,328289.30561891664,4689836.050168061,19,T
1698241865.05624,365,1698241865,55062294,GPS1_Frame,42.341879333333324,-71.08446883333333,14.7,328292.79847825237,4689840.112614241,19,T
1698241866.0548892,366,1698241866,54416418,GPS1_Frame,42.3419135,-71.084426,15.3,328296.42000994494,4689843.82006191,19,T
1698241867.057379,367,1698241867,56904554,GPS1_Frame,42.34194083333333,-71.08438733333334,15.0,328299.6796953662,4689846.777135766,19,T
1698241868.052836,368,1698241868,52464246,GPS1_Frame,42.3419615,-71.08435216666666,14.3,328302.6329082381,4689849.000996141,19,T
1698241869.0558746,369,1698241869,55431604,GPS1_Frame,42.3419835,-71.0843215,14.6,328305.21904829715,4689851.382001482,19,T
1698241870.0551627,370,1698241870,54807186,GPS1_Frame,42.34200666666667,-71.084299,15.7,328307.1356101122,4689853.909048625,19,T
1698241871.0582206,371,1698241871,57775974,GPS1_Frame,42.34203133333334,-71.08429233333332,17.2,328307.7519386296,4689856.634632847,19,T
1698241872.0548146,372,1698241872,54271697,GPS1_Frame,42.34204133333333,-71.08428783333333,18.4,328308.14985877613,4689857.735970068,19,T
1698241873.0581307,373,1698241873,56999683,GPS1_Frame,42.34204483333333,-71.08428699999999,19.0,328308.2280339568,4689858.122935783,19,T
1698241874.0525243,374,1698241874,51951885,GPS1_Frame,42.34204483333333,-71.08428633333332,19.6,328308.28295247036,4689858.121589553,19,T
1698241875.055718,375,1698241875,55381298,GPS1_Frame,42.34204666666666,-71.08428716666667,20.1,328308.21929468156,4689858.326850128,19,T
1698241876.0541263,376,1698241876,53817033,GPS1_Frame,42.342046333333336,-71.08428866666667,20.4,328308.0948206928,4689858.292865007,19,T
1698241877.0558379,377,1698241877,55484533,GPS1_Frame,42.34204583333334,-71.08429016666668,20.6,328307.9698930358,4689858.240372814,19,T
1698241878.0540092,378,1698241878,53500175,GPS1_Frame,42.34204566666667,-71.08429166666666,20.9,328307.8458727156,4689858.224894769,19,T
1698241879.0598698,379,1698241879,59421300,GPS1_Frame,42.3420455,-71.0842935,21.1,328307.6943931371,4689858.210089841,19,T
1698241880.0550253,380,1698241880,54542779,GPS1_Frame,42.342045999999996,-71.084296,21.5,328307.48980972834,4689858.270659441,19,T
1698241881.0556133,381,1698241881,55306434,GPS1_Frame,42.34204616666666,-71.0842985,21.9,328307.284318981,4689858.294214903,19,T
1698241882.0561042,382,1698241882,55680751,GPS1_Frame,42.342045999999996,-71.08430033333335,22.2,328307.13283940224,4689858.279409989,19,T
1698241883.055434,383,1698241883,55026531,GPS1_Frame,42.34204566666667,-71.084304,22.3,328306.8298802465,4689858.249800171,19,T
1698241884.0508232,384,1698241884,50450086,GPS1_Frame,42.34204566666667,-71.08430783333333,22.5,328306.5140988014,4689858.257541069,19,T
1698241885.0508957,385,1698241885,50505876,GPS1_Frame,42.3420455,-71.08431033333333,22.7,328306.30770070845,4689858.244082415,19,T
1698241886.053735,386,1698241886,53333520,GPS1_Frame,42.34204566666667,-71.08431283333333,22.9,328306.10220996244,4689858.267637913,19,T
1698241887.055886,387,1698241887,55600643,GPS1_Frame,42.3420455,-71.08431466666666,23.0,328305.9507303813,4689858.252833024,19,T
1698241888.055911,388,1698241888,55581331,GPS1_Frame,42.342044666666666,-71.08431233333334,23.6,328306.1406768021,4689858.155585798,19,T
1698241889.0564942,389,1698241889,56094884,GPS1_Frame,42.34204483333333,-71.08431416666667,23.7,328305.99010456516,4689858.177795052,19,T
1698241890.0536566,390,1698241890,53361177,GPS1_Frame,42.34204516666667,-71.08431666666667,23.5,328305.7850674947,4689858.21985763,19,T
1698241891.0558994,391,1698241891,55579185,GPS1_Frame,42.342046333333336,-71.0843215,23.2,328305.39008400927,4689858.359167457,19,T
1698241892.0522258,392,1698241892,51834106,GPS1_Frame,42.342048000000005,-71.08432716666667,22.7,328304.92781343556,4689858.555681341,19,T
1698241893.0564108,393,1698241893,56147813,GPS1_Frame,42.342049333333335,-71.0843335,22.1,328304.4097170178,4689858.716527374,19,T
1698241894.0552495,394,1698241894,54913282,GPS1_Frame,42.34204966666666,-71.08433033333334,22.5,328304.671487291,4689858.7471467815,19,T
1698241895.0556705,395,1698241895,55360555,GPS1_Frame,42.34205016666667,-71.08432616666667,22.8,328305.0160889989,4689858.794253887,19,T
1698241896.050936,396,1698241896,50427198,GPS1_Frame,42.342051999999995,-71.08432683333334,22.8,328304.96616094024,4689858.999177933,19,T
1698241897.06139,397,1698241897,61062335,GPS1_Frame,42.34205416666667,-71.084331,22.4,328304.6288180882,4689859.248183978,19,T
1698241898.054401,398,1698241898,54003477,GPS1_Frame,42.342056333333325,-71.08433266666665,22.4,328304.49741964904,4689859.492141558,19,T
1698241899.055096,399,1698241899,54751634,GPS1_Frame,42.342057499999996,-71.08433166666667,22.8,328304.5829731488,4689859.61967167,19,T
1698241900.056844,400,1698241900,56500434,GPS1_Frame,42.34206033333333,-71.08433450000001,22.7,328304.35728205787,4689859.940013496,19,T
1698241901.0572705,401,1698241901,56746959,GPS1_Frame,42.34207200000001,-71.08433316666667,22.7,328304.49887655943,4689861.232815995,19,T
1698241902.0568032,402,1698241902,56441068,GPS1_Frame,42.34208433333333,-71.0843005,22.6,328307.2234542181,4689862.536373032,19,T
1698241903.0556903,403,1698241903,55381774,GPS1_Frame,42.3420945,-71.08427533333334,22.5,328309.32430040964,4689863.614484159,19,T
1698241904.056166,404,1698241904,55834531,GPS1_Frame,42.34210483333333,-71.08426433333334,22.6,328310.2585823142,4689864.739709976,19,T
1698241905.0565665,405,1698241905,56151390,GPS1_Frame,42.34211516666666,-71.084246,22.4,328311.796966891,4689865.850127631,19,T
1698241906.0553172,406,1698241906,54954767,GPS1_Frame,42.34215433333334,-71.08423766666667,22.1,328312.5900572571,4689870.182461977,19,T
1698241907.0553977,407,1698241907,55095195,GPS1_Frame,42.34217816666666,-71.084225,21.6,328313.6983799756,4689872.803395541,19,T
1698241908.0555215,408,1698241908,55184841,GPS1_Frame,42.3421875,-71.08420166666666,21.8,328315.6459282964,4689873.792675131,19,T
1698241909.0576828,409,1698241909,57334423,GPS1_Frame,42.342199,-71.08417966666666,21.8,328317.4895366926,4689875.025239506,19,T
1698241910.0574734,410,1698241910,57028055,GPS1_Frame,42.34221183333334,-71.08416266666667,21.4,328318.92488581187,4689876.415957046,19,T
1698241911.0591447,411,1698241911,58715581,GPS1_Frame,42.342229333333336,-71.08413316666666,22.4,328321.4026553567,4689878.299632826,19,T
1698241912.0565236,412,1698241912,56168556,GPS1_Frame,42.34225933333334,-71.08412933333334,21.9,328321.80009031424,4689881.623165529,19,T
1698241913.0591633,413,1698241913,58850526,GPS1_Frame,42.342294833333334,-71.08413016666667,21.1,328321.82806692563,4689885.566854542,19,T
1698241914.053769,414,1698241914,53444147,GPS1_Frame,42.34232716666667,-71.08414783333333,21.0,328320.4607383653,4689889.192899161,19,T
1698241915.0590675,415,1698241915,58710813,GPS1_Frame,42.34236316666667,-71.08418766666666,20.3,328317.27736022556,4689893.27085955,19,T
1698241916.056524,416,1698241916,56176185,GPS1_Frame,42.34239366666667,-71.084235,19.8,328313.46118532174,4689896.753232837,19,T
1698241917.05757,417,1698241917,57266473,GPS1_Frame,42.34242583333333,-71.08428333333333,19.9,328309.5671736661,4689900.4226984,19,T
1698241918.0532084,418,1698241918,52903175,GPS1_Frame,42.3424515,-71.084329,19.8,328305.8751451649,4689903.365005389,19,T
1698241919.0605836,419,1698241919,60125112,GPS1_Frame,42.34247033333333,-71.08436216666668,19.6,328303.1942335757,4689905.523281582,19,T
1698241920.0615175,420,1698241920,60988903,GPS1_Frame,42.342481,-71.08439733333333,21.0,328300.32633814024,4689906.778751194,19,T
1698241921.0577507,421,1698241921,57413578,GPS1_Frame,42.34248233333333,-71.0844115,21.8,328299.16295741,4689906.955416839,19,T
1698241922.057846,422,1698241922,57453870,GPS1_Frame,42.342476500000004,-71.08443000000001,23.4,328297.6230996371,4689906.3450296465,19,T
1698241923.0588057,423,1698241923,58494806,GPS1_Frame,42.34247116666667,-71.084444,24.6,328296.4553001619,4689905.781076238,19,T
1698241924.0583265,424,1698241924,57923078,GPS1_Frame,42.342465666666676,-71.0844565,25.7,328295.41061260947,4689905.195586676,19,T
1698241925.0574827,425,1698241925,56996345,GPS1_Frame,42.34245816666667,-71.08446633333332,26.9,328294.5801529535,4689904.382626987,19,T
1698241926.0560224,426,1698241926,55773973,GPS1_Frame,42.34245316666667,-71.08447333333334,27.9,328293.98990096815,4689903.841551485,19,T
1698241927.0622542,427,1698241927,61830759,GPS1_Frame,42.3424475,-71.08447983333333,28.8,328293.4390226613,4689903.225437968,19,T
1698241928.0556855,428,1698241928,55267810,GPS1_Frame,42.34244316666666,-71.08448483333333,29.5,328293.0153398529,4689902.754351762,19,T
1698241929.059418,429,1698241929,58908939,GPS1_Frame,42.34243983333334,-71.0844895,30.3,328292.6218383709,4689902.39363484,19,T
1698241930.0560024,430,1698241930,55495977,GPS1_Frame,42.34243783333333,-71.08449533333334,30.3,328292.13585978746,4689902.183330663,19,T
1698241931.0557191,431,1698241931,55370569,GPS1_Frame,42.34244,-71.084503,30.5,328291.5101991702,4689902.439405866,19,T
1698241932.053739,432,1698241932,53305864,GPS1_Frame,42.34244133333333,-71.08449949999999,30.7,328291.8021493,4689902.580394,19,T
1698241933.0593677,433,1698241933,58964729,GPS1_Frame,42.34244233333334,-71.08449266666666,31.0,328292.36778281943,4689902.677636168,19,T
1698241934.0559878,434,1698241934,55581808,GPS1_Frame,42.342442,-71.08448883333334,31.1,328292.68265484646,4689902.632880424,19,T
1698241935.0593362,435,1698241935,58906316,GPS1_Frame,42.34244350000001,-71.08448466666667,31.1,328293.0299768261,4689902.791029322,19,T
1698241936.0553648,436,1698241936,54952621,GPS1_Frame,42.34244449999999,-71.0844805,31.2,328293.3759376452,4689902.893657012,19,T
1698241937.057501,437,1698241937,57096242,GPS1_Frame,42.34244350000001,-71.08447883333334,31.2,328293.5105107767,4689902.779248684,19,T
1698241938.0557609,438,1698241938,55384874,GPS1_Frame,42.342442833333344,-71.084477,31.4,328293.65972087835,4689902.701517913,19,T
1698241939.0597048,439,1698241939,59391021,GPS1_Frame,42.34244116666667,-71.08447616666668,31.6,328293.72383145615,4689902.514764239,19,T
1698241940.056507,440,1698241940,56126356,GPS1_Frame,42.342438333333334,-71.08447683333334,31.7,328293.66120016534,4689902.201490354,19,T
1698241941.0570247,441,1698241941,56475400,GPS1_Frame,42.342439666666664,-71.0844745,31.7,328293.8570434627,4689902.344834696,19,T
1698241942.0554805,442,1698241942,55139303,GPS1_Frame,42.34243883333333,-71.08447316666667,31.7,328293.96461123653,4689902.249606624,19,T
1698241943.058895,443,1698241943,58432579,GPS1_Frame,42.34243883333333,-71.084472,31.8,328294.0607180358,4689902.247250507,19,T
1698241944.057194,444,1698241944,56871652,GPS1_Frame,42.3424395,-71.08447066666666,32.0,328294.1723692225,4689902.318586093,19,T
1698241945.0572758,445,1698241945,56830406,GPS1_Frame,42.34243983333334,-71.0844695,32.2,328294.2693834419,4689902.353244126,19,T
1698241946.0558133,446,1698241946,55243015,GPS1_Frame,42.342438333333334,-71.08446966666666,32.3,328294.2515704953,4689902.187017057,19,T
1698241947.0576751,447,1698241947,57307481,GPS1_Frame,42.34243766666667,-71.08446966666666,32.5,328294.2497556489,4689902.112988766,19,T
1698241948.0564487,448,1698241948,55983543,GPS1_Frame,42.34243733333333,-71.08446983333333,32.7,328294.2351186831,4689902.076311207,19,T
1698241949.0577843,449,1698241949,57438135,GPS1_Frame,42.34243783333333,-71.08446933333333,33.0,328294.27766844514,4689902.130822662,19,T
1698241950.057129,450,1698241950,56729793,GPS1_Frame,42.342437000000004,-71.08447,33.3,328294.22048171726,4689902.03963365,19,T
1698241951.0640314,451,1698241951,63658237,GPS1_Frame,42.342437000000004,-71.08446966666666,33.9,328294.24794080236,4689902.0389604755,19,T
1698241952.0586445,452,1698241952,58099985,GPS1_Frame,42.342437000000004,-71.08446883333333,34.4,328294.3165885151,4689902.037277537,19,T
1698241953.061608,453,1698241953,61152696,GPS1_Frame,42.342437999999994,-71.08446766666665,35.0,328294.41541758424,4689902.145963862,19,T
